[
  {
    "id": "city-vienna",
    "name": "Vienna",
    "aliases": ["Wien"],
    "country_code": "AUT",
    "country_name": "Austria",
    "admin_area": "Vienna",
    "lat": 48.2082,
    "lng": 16.3738,
    "priority": 10,
    "role_tags": ["capital", "finance", "hq_cluster"],
    "strategic_sectors": ["government", "finance", "energy", "advanced services"],
    "summary": "Austria's political and financial core, with major public-sector, HQ, and energy-market significance."
  },
  {
    "id": "city-graz",
    "name": "Graz",
    "country_code": "AUT",
    "country_name": "Austria",
    "admin_area": "Styria",
    "lat": 47.0707,
    "lng": 15.4395,
    "priority": 20,
    "role_tags": ["industrial_hub", "engineering_cluster"],
    "strategic_sectors": ["automotive", "machinery", "engineering"],
    "summary": "Styria's engineering and automotive center with dense supplier and vehicle-production activity."
  },
  {
    "id": "city-linz",
    "name": "Linz",
    "country_code": "AUT",
    "country_name": "Austria",
    "admin_area": "Upper Austria",
    "lat": 48.3069,
    "lng": 14.2858,
    "priority": 30,
    "role_tags": ["industrial_hub", "river_logistics"],
    "strategic_sectors": ["steel", "chemicals", "Danube logistics"],
    "summary": "Upper Austrian industrial hub centered on steel, chemicals, and river-linked logistics."
  },
  {
    "id": "city-salzburg",
    "name": "Salzburg",
    "country_code": "AUT",
    "country_name": "Austria",
    "admin_area": "Salzburg",
    "lat": 47.8095,
    "lng": 13.055,
    "priority": 40,
    "role_tags": ["state_capital", "tourism_hub", "logistics_node"],
    "strategic_sectors": ["tourism", "cross-border trade", "rail logistics"],
    "summary": "Western Austrian services and logistics hub with strong tourism and Bavaria-facing trade links."
  },
  {
    "id": "city-innsbruck",
    "name": "Innsbruck",
    "country_code": "AUT",
    "country_name": "Austria",
    "admin_area": "Tyrol",
    "lat": 47.2692,
    "lng": 11.4041,
    "priority": 50,
    "role_tags": ["state_capital", "alpine_logistics", "university_hub"],
    "strategic_sectors": ["Alpine transit", "tourism", "medical technology"],
    "summary": "Tyrolean capital positioned on Brenner transit flows, tourism, and university-linked services."
  },
  {
    "id": "city-villach",
    "name": "Villach",
    "country_code": "AUT",
    "country_name": "Austria",
    "admin_area": "Carinthia",
    "lat": 46.6103,
    "lng": 13.8558,
    "priority": 60,
    "role_tags": ["technology_cluster"],
    "strategic_sectors": ["semiconductors", "electronics", "cross-border logistics"],
    "summary": "Carinthian technology node anchored by semiconductor manufacturing and Alpine-Adriatic corridor links."
  },
  {
    "id": "city-klagenfurt",
    "name": "Klagenfurt",
    "aliases": ["Klagenfurt am Woerthersee"],
    "country_code": "AUT",
    "country_name": "Austria",
    "admin_area": "Carinthia",
    "lat": 46.6365,
    "lng": 14.3122,
    "priority": 70,
    "role_tags": ["state_capital", "services_hub"],
    "strategic_sectors": ["public administration", "digital services", "education"],
    "summary": "Carinthian administrative center with a growing services and software footprint."
  },
  {
    "id": "city-wels",
    "name": "Wels",
    "country_code": "AUT",
    "country_name": "Austria",
    "admin_area": "Upper Austria",
    "lat": 48.157,
    "lng": 14.0252,
    "priority": 80,
    "role_tags": ["industrial_hub", "logistics_node"],
    "strategic_sectors": ["machinery", "wholesale trade", "distribution"],
    "summary": "Upper Austrian distribution and machinery center with strong motorway and rail access."
  },
  {
    "id": "city-sankt-polten",
    "name": "Sankt Polten",
    "aliases": ["St. Polten"],
    "country_code": "AUT",
    "country_name": "Austria",
    "admin_area": "Lower Austria",
    "lat": 48.2035,
    "lng": 15.6236,
    "priority": 90,
    "role_tags": ["state_capital", "admin_hub"],
    "strategic_sectors": ["public administration", "health services", "education"],
    "summary": "Lower Austrian capital with strong public-sector and health-system relevance."
  },
  {
    "id": "city-wiener-neustadt",
    "name": "Wiener Neustadt",
    "country_code": "AUT",
    "country_name": "Austria",
    "admin_area": "Lower Austria",
    "lat": 47.815,
    "lng": 16.244,
    "priority": 100,
    "role_tags": ["industrial_hub", "aerospace_cluster"],
    "strategic_sectors": ["aerospace", "rail engineering", "advanced manufacturing"],
    "summary": "Industrial city south of Vienna with aerospace, rail, and advanced-manufacturing weight."
  },
  {
    "id": "city-leoben",
    "name": "Leoben",
    "country_code": "AUT",
    "country_name": "Austria",
    "admin_area": "Styria",
    "lat": 47.3765,
    "lng": 15.093,
    "priority": 110,
    "role_tags": ["metals_cluster", "university_hub"],
    "strategic_sectors": ["steel research", "materials engineering", "metallurgy"],
    "summary": "Materials-science and metallurgical center tied closely to Austrian steel production."
  },
  {
    "id": "city-schwechat",
    "name": "Schwechat",
    "country_code": "AUT",
    "country_name": "Austria",
    "admin_area": "Lower Austria",
    "lat": 48.1417,
    "lng": 16.4706,
    "priority": 120,
    "role_tags": ["aviation_hub", "energy_hub"],
    "strategic_sectors": ["aviation", "refining", "fuel logistics"],
    "summary": "Airport and refining node critical to Vienna's connectivity and fuel supply chain."
  },
  {
    "id": "city-steyr",
    "name": "Steyr",
    "country_code": "AUT",
    "country_name": "Austria",
    "admin_area": "Upper Austria",
    "lat": 48.0432,
    "lng": 14.4211,
    "priority": 130,
    "role_tags": ["industrial_hub", "automotive_cluster"],
    "strategic_sectors": ["vehicle components", "machinery", "metals"],
    "summary": "Manufacturing city with a long-running vehicle and machinery base."
  },
  {
    "id": "city-dornbirn",
    "name": "Dornbirn",
    "country_code": "AUT",
    "country_name": "Austria",
    "admin_area": "Vorarlberg",
    "lat": 47.414,
    "lng": 9.7423,
    "priority": 140,
    "role_tags": ["export_manufacturing", "services_hub"],
    "strategic_sectors": ["textiles", "precision manufacturing", "business services"],
    "summary": "Vorarlberg export and services center with dense links into the Lake Constance economy."
  },
  {
    "id": "city-feldkirch",
    "name": "Feldkirch",
    "country_code": "AUT",
    "country_name": "Austria",
    "admin_area": "Vorarlberg",
    "lat": 47.2378,
    "lng": 9.5986,
    "priority": 150,
    "role_tags": ["border_hub", "industrial_hub"],
    "strategic_sectors": ["cross-border trade", "medical technology", "specialty manufacturing"],
    "summary": "Vorarlberg border city linked to Liechtenstein and Swiss industrial labor flows."
  },
  {
    "id": "city-bregenz",
    "name": "Bregenz",
    "country_code": "AUT",
    "country_name": "Austria",
    "admin_area": "Vorarlberg",
    "lat": 47.5031,
    "lng": 9.7471,
    "priority": 160,
    "role_tags": ["state_capital", "services_hub"],
    "strategic_sectors": ["public administration", "tourism", "cross-border services"],
    "summary": "Vorarlberg administrative center with services and Lake Constance tourism relevance."
  },
  {
    "id": "city-krems-an-der-donau",
    "name": "Krems an der Donau",
    "aliases": ["Krems"],
    "country_code": "AUT",
    "country_name": "Austria",
    "admin_area": "Lower Austria",
    "lat": 48.4103,
    "lng": 15.6014,
    "priority": 170,
    "role_tags": ["river_logistics", "education_hub"],
    "strategic_sectors": ["food processing", "wine economy", "Danube logistics"],
    "summary": "Danube city with logistics, food processing, and Wachau-linked services."
  },
  {
    "id": "city-kapfenberg",
    "name": "Kapfenberg",
    "country_code": "AUT",
    "country_name": "Austria",
    "admin_area": "Styria",
    "lat": 47.4446,
    "lng": 15.292,
    "priority": 180,
    "role_tags": ["metals_cluster", "industrial_hub"],
    "strategic_sectors": ["specialty steel", "forgings", "industrial materials"],
    "summary": "Strategic Styrian metallurgy center tied to specialty steel and forgings."
  },
  {
    "id": "city-amstetten",
    "name": "Amstetten",
    "country_code": "AUT",
    "country_name": "Austria",
    "admin_area": "Lower Austria",
    "lat": 48.122,
    "lng": 14.8721,
    "priority": 190,
    "role_tags": ["rail_hub", "industrial_hub"],
    "strategic_sectors": ["rail maintenance", "machinery", "regional distribution"],
    "summary": "Lower Austrian rail and industry node on the westbound corridor from Vienna."
  },
  {
    "id": "city-kufstein",
    "name": "Kufstein",
    "country_code": "AUT",
    "country_name": "Austria",
    "admin_area": "Tyrol",
    "lat": 47.5833,
    "lng": 12.1667,
    "priority": 200,
    "role_tags": ["border_hub", "industrial_hub"],
    "strategic_sectors": ["cross-border manufacturing", "logistics", "medical products"],
    "summary": "Tyrolean border city with strong Bavaria-facing industrial and logistics links."
  },
  {
    "id": "city-lienz",
    "name": "Lienz",
    "country_code": "AUT",
    "country_name": "Austria",
    "admin_area": "Tyrol",
    "lat": 46.8282,
    "lng": 12.769,
    "priority": 210,
    "role_tags": ["alpine_logistics", "industrial_hub"],
    "strategic_sectors": ["engineering", "hydropower corridor", "tourism"],
    "summary": "East Tyrolean node combining engineering, Alpine logistics, and hydropower adjacency."
  },
  {
    "id": "city-sankt-valentin",
    "name": "Sankt Valentin",
    "aliases": ["St. Valentin"],
    "country_code": "AUT",
    "country_name": "Austria",
    "admin_area": "Lower Austria",
    "lat": 48.1667,
    "lng": 14.5333,
    "priority": 220,
    "role_tags": ["industrial_hub", "rail_hub"],
    "strategic_sectors": ["truck manufacturing", "metals", "rail-linked industry"],
    "summary": "Industrial corridor city on the Lower Austria and Upper Austria boundary."
  },
  {
    "id": "city-ried-im-innkreis",
    "name": "Ried im Innkreis",
    "country_code": "AUT",
    "country_name": "Austria",
    "admin_area": "Upper Austria",
    "lat": 48.211,
    "lng": 13.4886,
    "priority": 230,
    "role_tags": ["machinery_cluster", "agribusiness_hub"],
    "strategic_sectors": ["agricultural machinery", "food processing", "regional trade"],
    "summary": "Innviertel machinery and agribusiness center with regional trade significance."
  },
  {
    "id": "city-tulln-an-der-donau",
    "name": "Tulln an der Donau",
    "aliases": ["Tulln"],
    "country_code": "AUT",
    "country_name": "Austria",
    "admin_area": "Lower Austria",
    "lat": 48.3283,
    "lng": 16.0575,
    "priority": 240,
    "role_tags": ["river_logistics", "agritech_hub"],
    "strategic_sectors": ["agritech", "research", "Danube logistics"],
    "summary": "Lower Austrian agritech and Danube city with research and logistics relevance."
  },
  {
    "id": "city-traun",
    "name": "Traun",
    "country_code": "AUT",
    "country_name": "Austria",
    "admin_area": "Upper Austria",
    "lat": 48.2266,
    "lng": 14.2346,
    "priority": 250,
    "role_tags": ["logistics_node", "industrial_hub"],
    "strategic_sectors": ["building materials", "distribution", "industrial estates"],
    "summary": "Linz-area industrial and distribution city on central Upper Austrian transport links."
  },
  {
    "id": "city-voecklabruck",
    "name": "Voecklabruck",
    "aliases": ["Vocklabruck"],
    "country_code": "AUT",
    "country_name": "Austria",
    "admin_area": "Upper Austria",
    "lat": 48.004,
    "lng": 13.657,
    "priority": 260,
    "role_tags": ["regional_services", "industrial_hub"],
    "strategic_sectors": ["machinery", "timber processing", "health services"],
    "summary": "Salzkammergut gateway with industrial estates and regional services weight."
  },
  {
    "id": "city-wolfsberg",
    "name": "Wolfsberg",
    "country_code": "AUT",
    "country_name": "Austria",
    "admin_area": "Carinthia",
    "lat": 46.8406,
    "lng": 14.8443,
    "priority": 270,
    "role_tags": ["resource_corridor", "industrial_hub"],
    "strategic_sectors": ["battery materials", "timber", "regional manufacturing"],
    "summary": "Carinthian resource corridor city with battery-material and manufacturing relevance."
  },
  {
    "id": "city-judenburg",
    "name": "Judenburg",
    "country_code": "AUT",
    "country_name": "Austria",
    "admin_area": "Styria",
    "lat": 47.1702,
    "lng": 14.6616,
    "priority": 280,
    "role_tags": ["rail_hub", "metals_cluster"],
    "strategic_sectors": ["rail workshop economy", "metals", "regional logistics"],
    "summary": "Upper Styrian corridor city tied to rail, metals, and Mur valley logistics."
  },
  {
    "id": "city-knittelfeld",
    "name": "Knittelfeld",
    "country_code": "AUT",
    "country_name": "Austria",
    "admin_area": "Styria",
    "lat": 47.2167,
    "lng": 14.8167,
    "priority": 290,
    "role_tags": ["rail_hub", "industrial_hub"],
    "strategic_sectors": ["rail logistics", "machinery", "regional industry"],
    "summary": "Mur-Muerz corridor logistics point with rail and industrial estates relevance."
  },
  {
    "id": "city-hall-in-tirol",
    "name": "Hall in Tirol",
    "country_code": "AUT",
    "country_name": "Austria",
    "admin_area": "Tyrol",
    "lat": 47.2833,
    "lng": 11.5,
    "priority": 300,
    "role_tags": ["industrial_hub", "logistics_node"],
    "strategic_sectors": ["pharmaceuticals", "food manufacturing", "warehousing"],
    "summary": "Innsbruck-area industrial and warehousing node with pharmaceutical relevance."
  },
  {
    "id": "city-gmunden",
    "name": "Gmunden",
    "country_code": "AUT",
    "country_name": "Austria",
    "admin_area": "Upper Austria",
    "lat": 47.9184,
    "lng": 13.7993,
    "priority": 310,
    "role_tags": ["specialty_manufacturing", "tourism_hub"],
    "strategic_sectors": ["ceramics", "tourism", "advanced components"],
    "summary": "Salzkammergut specialty-manufacturing city with ceramics and tourism exposure."
  },
  {
    "id": "city-braunau-am-inn",
    "name": "Braunau am Inn",
    "country_code": "AUT",
    "country_name": "Austria",
    "admin_area": "Upper Austria",
    "lat": 48.2578,
    "lng": 13.0434,
    "priority": 320,
    "role_tags": ["border_hub", "industrial_hub"],
    "strategic_sectors": ["cross-border manufacturing", "electronics", "regional logistics"],
    "summary": "Inn border city with manufacturing and Bavaria-facing labor and trade links."
  }
]
